[{"Dep_Airport":"SBN","LATITUDE":41.70895,"LONGITUDE":-86.31847,"Average_Delay":10.54},{"Dep_Airport":"PIA","LATITUDE":40.66424,"LONGITUDE":-89.69331,"Average_Delay":11.43},{"Dep_Airport":"ORD","LATITUDE":41.9796,"LONGITUDE":-87.90446,"Average_Delay":8.06},{"Dep_Airport":"ABI","LATITUDE":32.41132,"LONGITUDE":-99.6819,"Average_Delay":1.48},{"Dep_Airport":"JAN","LATITUDE":32.31117,"LONGITUDE":-90.07589,"Average_Delay":-1.19},{"Dep_Airport":"JNU","LATITUDE":58.35496,"LONGITUDE":-134.57628,"Average_Delay":0.51},{"Dep_Airport":"FLG","LATITUDE":35.13845,"LONGITUDE":-111.67122,"Average_Delay":-1.4},{"Dep_Airport":"DAY","LATITUDE":39.90238,"LONGITUDE":-84.21938,"Average_Delay":2.8},{"Dep_Airport":"BTM","LATITUDE":45.9548,"LONGITUDE":-112.49746,"Average_Delay":-19.93},{"Dep_Airport":"COD","LATITUDE":44.52019,"LONGITUDE":-109.0238,"Average_Delay":102.75},{"Dep_Airport":"BQN","LATITUDE":18.49486,"LONGITUDE":-67.12944,"Average_Delay":26.95},{"Dep_Airport":"TRI","LATITUDE":36.47521,"LONGITUDE":-82.40742,"Average_Delay":-0.03},{"Dep_Airport":"YAK","LATITUDE":59.50336,"LONGITUDE":-139.66023,"Average_Delay":-6.34},{"Dep_Airport":"PNS","LATITUDE":30.47331,"LONGITUDE":-87.18744,"Average_Delay":7.87},{"Dep_Airport":"HOU","LATITUDE":29.64542,"LONGITUDE":-95.27889,"Average_Delay":5.28},{"Dep_Airport":"CVG","LATITUDE":39.04614,"LONGITUDE":-84.66217,"Average_Delay":6.11},{"Dep_Airport":"LCH","LATITUDE":30.1261,"LONGITUDE":-93.2234,"Average_Delay":23.5},{"Dep_Airport":"HDN","LATITUDE":40.48118,"LONGITUDE":-107.21766,"Average_Delay":11.42},{"Dep_Airport":"FAT","LATITUDE":36.77619,"LONGITUDE":-119.71814,"Average_Delay":7.91},{"Dep_Airport":"EWN","LATITUDE":35.07297,"LONGITUDE":-77.04294,"Average_Delay":-9.76},{"Dep_Airport":"AEX","LATITUDE":31.32737,"LONGITUDE":-92.54856,"Average_Delay":0.91},{"Dep_Airport":"IAH","LATITUDE":29.98047,"LONGITUDE":-95.33972,"Average_Delay":10.96},{"Dep_Airport":"FAI","LATITUDE":64.81368,"LONGITUDE":-147.85967,"Average_Delay":3.2},{"Dep_Airport":"BTR","LATITUDE":30.53316,"LONGITUDE":-91.14963,"Average_Delay":4.47},{"Dep_Airport":"HLN","LATITUDE":46.60682,"LONGITUDE":-111.98275,"Average_Delay":-3.0},{"Dep_Airport":"BDL","LATITUDE":41.93887,"LONGITUDE":-72.68323,"Average_Delay":9.44},{"Dep_Airport":"GUC","LATITUDE":38.53396,"LONGITUDE":-106.93318,"Average_Delay":12.22},{"Dep_Airport":"OTH","LATITUDE":43.41714,"LONGITUDE":-124.24603,"Average_Delay":11.57},{"Dep_Airport":"BGM","LATITUDE":42.0,"LONGITUDE":-75.15,"Average_Delay":20.76},{"Dep_Airport":"MSP","LATITUDE":44.88055,"LONGITUDE":-93.21692,"Average_Delay":0.29},{"Dep_Airport":"RHI","LATITUDE":45.63119,"LONGITUDE":-89.46745,"Average_Delay":-14.75},{"Dep_Airport":"PHX","LATITUDE":33.43417,"LONGITUDE":-112.00806,"Average_Delay":4.97},{"Dep_Airport":"PBI","LATITUDE":26.68316,"LONGITUDE":-80.09559,"Average_Delay":13.43},{"Dep_Airport":"MTJ","LATITUDE":38.50887,"LONGITUDE":-107.89383,"Average_Delay":14.74},{"Dep_Airport":"PIB","LATITUDE":31.46715,"LONGITUDE":-89.33706,"Average_Delay":19.68},{"Dep_Airport":"BRD","LATITUDE":46.39786,"LONGITUDE":-94.13723,"Average_Delay":9.67},{"Dep_Airport":"BUR","LATITUDE":34.20062,"LONGITUDE":-118.3585,"Average_Delay":2.28},{"Dep_Airport":"CHA","LATITUDE":35.03527,"LONGITUDE":-85.20379,"Average_Delay":9.81},{"Dep_Airport":"BMI","LATITUDE":40.47799,"LONGITUDE":-88.91595,"Average_Delay":0.08},{"Dep_Airport":"BWI","LATITUDE":39.1754,"LONGITUDE":-76.6682,"Average_Delay":10.2},{"Dep_Airport":"BGR","LATITUDE":44.80744,"LONGITUDE":-68.82814,"Average_Delay":8.57},{"Dep_Airport":"ASE","LATITUDE":39.22316,"LONGITUDE":-106.86885,"Average_Delay":18.82},{"Dep_Airport":"PDX","LATITUDE":45.58872,"LONGITUDE":-122.5975,"Average_Delay":4.58},{"Dep_Airport":"PGD","LATITUDE":26.9298,"LONGITUDE":-82.0454,"Average_Delay":10.82},{"Dep_Airport":"LIT","LATITUDE":34.7294,"LONGITUDE":-92.22425,"Average_Delay":8.88},{"Dep_Airport":"LSE","LATITUDE":43.87938,"LONGITUDE":-91.25654,"Average_Delay":8.34},{"Dep_Airport":"SFO","LATITUDE":37.619,"LONGITUDE":-122.37484,"Average_Delay":7.2},{"Dep_Airport":"MBS","LATITUDE":43.53291,"LONGITUDE":-84.07965,"Average_Delay":11.26},{"Dep_Airport":"KTN","LATITUDE":55.35557,"LONGITUDE":-131.71374,"Average_Delay":-1.57},{"Dep_Airport":"GCK","LATITUDE":37.92752,"LONGITUDE":-100.72441,"Average_Delay":4.36},{"Dep_Airport":"EGE","LATITUDE":39.64257,"LONGITUDE":-106.9177,"Average_Delay":18.48},{"Dep_Airport":"RAP","LATITUDE":44.04532,"LONGITUDE":-103.05737,"Average_Delay":4.87},{"Dep_Airport":"SWF","LATITUDE":41.50409,"LONGITUDE":-74.10484,"Average_Delay":10.11},{"Dep_Airport":"PSM","LATITUDE":43.077,"LONGITUDE":-70.7577,"Average_Delay":31.77},{"Dep_Airport":"OTZ","LATITUDE":66.88468,"LONGITUDE":-162.59855,"Average_Delay":-6.71},{"Dep_Airport":"GCC","LATITUDE":44.3489,"LONGITUDE":-105.53936,"Average_Delay":15.18},{"Dep_Airport":"MHT","LATITUDE":42.93452,"LONGITUDE":-71.43706,"Average_Delay":4.85},{"Dep_Airport":"KOA","LATITUDE":19.73877,"LONGITUDE":-156.04563,"Average_Delay":-1.03},{"Dep_Airport":"SLN","LATITUDE":38.8403,"LONGITUDE":-97.6114,"Average_Delay":33.57},{"Dep_Airport":"FAY","LATITUDE":34.99147,"LONGITUDE":-78.88,"Average_Delay":8.6},{"Dep_Airport":"SCK","LATITUDE":37.9577,"LONGITUDE":-121.2908,"Average_Delay":28.97},{"Dep_Airport":"HNL","LATITUDE":21.31869,"LONGITUDE":-157.92241,"Average_Delay":2.8},{"Dep_Airport":"SJT","LATITUDE":31.35775,"LONGITUDE":-100.49631,"Average_Delay":-1.13},{"Dep_Airport":"ATW","LATITUDE":44.25741,"LONGITUDE":-88.51948,"Average_Delay":9.81},{"Dep_Airport":"AVL","LATITUDE":35.4333,"LONGITUDE":-82.0333,"Average_Delay":12.54},{"Dep_Airport":"ITH","LATITUDE":42.49103,"LONGITUDE":-76.45844,"Average_Delay":7.05},{"Dep_Airport":"LBE","LATITUDE":40.27594,"LONGITUDE":-79.4048,"Average_Delay":46.1},{"Dep_Airport":"CMI","LATITUDE":40.03925,"LONGITUDE":-88.27806,"Average_Delay":6.15},{"Dep_Airport":"FWA","LATITUDE":40.97847,"LONGITUDE":-85.19515,"Average_Delay":13.16},{"Dep_Airport":"TUS","LATITUDE":32.11608,"LONGITUDE":-110.94103,"Average_Delay":4.36},{"Dep_Airport":"ISP","LATITUDE":40.79524,"LONGITUDE":-73.10021,"Average_Delay":3.05},{"Dep_Airport":"MKE","LATITUDE":42.94722,"LONGITUDE":-87.89658,"Average_Delay":9.31},{"Dep_Airport":"SAT","LATITUDE":29.53369,"LONGITUDE":-98.46978,"Average_Delay":6.08},{"Dep_Airport":"HTS","LATITUDE":38.3667,"LONGITUDE":-82.55,"Average_Delay":35.58},{"Dep_Airport":"CPR","LATITUDE":42.90836,"LONGITUDE":-106.46447,"Average_Delay":3.96},{"Dep_Airport":"PBG","LATITUDE":44.699,"LONGITUDE":-73.4529,"Average_Delay":14.56},{"Dep_Airport":"PIT","LATITUDE":40.49147,"LONGITUDE":-80.23287,"Average_Delay":1.02},{"Dep_Airport":"BHM","LATITUDE":33.56294,"LONGITUDE":-86.75355,"Average_Delay":7.23},{"Dep_Airport":"MYR","LATITUDE":33.67975,"LONGITUDE":-78.92833,"Average_Delay":7.77},{"Dep_Airport":"BLI","LATITUDE":48.79275,"LONGITUDE":-122.53753,"Average_Delay":6.24},{"Dep_Airport":"IMT","LATITUDE":45.81835,"LONGITUDE":-88.11454,"Average_Delay":37.71},{"Dep_Airport":"CLE","LATITUDE":41.41089,"LONGITUDE":-81.8494,"Average_Delay":5.82},{"Dep_Airport":"CAE","LATITUDE":33.93884,"LONGITUDE":-81.11954,"Average_Delay":7.71},{"Dep_Airport":"CRW","LATITUDE":38.37315,"LONGITUDE":-81.59319,"Average_Delay":16.81},{"Dep_Airport":"ACY","LATITUDE":39.3642,"LONGITUDE":-74.4231,"Average_Delay":4.61},{"Dep_Airport":"OME","LATITUDE":64.5122,"LONGITUDE":-165.44525,"Average_Delay":-1.08},{"Dep_Airport":"COU","LATITUDE":38.81809,"LONGITUDE":-92.21963,"Average_Delay":3.98},{"Dep_Airport":"ITO","LATITUDE":19.72026,"LONGITUDE":-155.04847,"Average_Delay":5.65},{"Dep_Airport":"BRW","LATITUDE":71.28545,"LONGITUDE":-156.766,"Average_Delay":17.59},{"Dep_Airport":"DIK","LATITUDE":46.79739,"LONGITUDE":-102.80195,"Average_Delay":3.36},{"Dep_Airport":"DLG","LATITUDE":59.04541,"LONGITUDE":-158.50334,"Average_Delay":11.67},{"Dep_Airport":"LCK","LATITUDE":40.0,"LONGITUDE":-82.05,"Average_Delay":22.73},{"Dep_Airport":"PHL","LATITUDE":39.87195,"LONGITUDE":-75.24114,"Average_Delay":7.47},{"Dep_Airport":"MAF","LATITUDE":31.94253,"LONGITUDE":-102.20191,"Average_Delay":5.04},{"Dep_Airport":"PUB","LATITUDE":38.28909,"LONGITUDE":-104.49657,"Average_Delay":-17.0},{"Dep_Airport":"ERI","LATITUDE":42.08202,"LONGITUDE":-80.17622,"Average_Delay":11.1},{"Dep_Airport":"TPA","LATITUDE":27.97547,"LONGITUDE":-82.53325,"Average_Delay":6.34},{"Dep_Airport":"GRK","LATITUDE":31.0649,"LONGITUDE":-97.8278,"Average_Delay":9.83},{"Dep_Airport":"SEA","LATITUDE":47.44898,"LONGITUDE":-122.30931,"Average_Delay":5.19},{"Dep_Airport":"CDV","LATITUDE":60.49183,"LONGITUDE":-145.47765,"Average_Delay":-0.93},{"Dep_Airport":"BJI","LATITUDE":47.50942,"LONGITUDE":-94.93372,"Average_Delay":7.54},{"Dep_Airport":"DRT","LATITUDE":29.3627,"LONGITUDE":-100.8968,"Average_Delay":15.78},{"Dep_Airport":"RKS","LATITUDE":41.59422,"LONGITUDE":-109.06519,"Average_Delay":-0.05},{"Dep_Airport":"TYS","LATITUDE":35.81249,"LONGITUDE":-83.99286,"Average_Delay":5.22},{"Dep_Airport":"MFR","LATITUDE":42.37423,"LONGITUDE":-122.8735,"Average_Delay":6.58},{"Dep_Airport":"MOT","LATITUDE":48.25938,"LONGITUDE":-101.28033,"Average_Delay":2.95},{"Dep_Airport":"DSM","LATITUDE":41.53493,"LONGITUDE":-93.66068,"Average_Delay":7.53},{"Dep_Airport":"BFF","LATITUDE":41.8666,"LONGITUDE":-103.6672,"Average_Delay":-9.2},{"Dep_Airport":"BQK","LATITUDE":31.25903,"LONGITUDE":-81.46631,"Average_Delay":45.0},{"Dep_Airport":"DAL","LATITUDE":32.84711,"LONGITUDE":-96.85177,"Average_Delay":5.23},{"Dep_Airport":"ILM","LATITUDE":34.27061,"LONGITUDE":-77.90256,"Average_Delay":6.41},{"Dep_Airport":"CAK","LATITUDE":40.91631,"LONGITUDE":-81.44247,"Average_Delay":5.43},{"Dep_Airport":"LBB","LATITUDE":33.66364,"LONGITUDE":-101.82278,"Average_Delay":13.56},{"Dep_Airport":"GGG","LATITUDE":32.38486,"LONGITUDE":-94.71171,"Average_Delay":8.21},{"Dep_Airport":"AZO","LATITUDE":42.23488,"LONGITUDE":-85.55206,"Average_Delay":3.31},{"Dep_Airport":"LFT","LATITUDE":30.20528,"LONGITUDE":-91.98766,"Average_Delay":11.34},{"Dep_Airport":"GFK","LATITUDE":47.94926,"LONGITUDE":-97.17611,"Average_Delay":10.94},{"Dep_Airport":"CKB","LATITUDE":39.2807,"LONGITUDE":-80.3445,"Average_Delay":46.97},{"Dep_Airport":"JFK","LATITUDE":40.63975,"LONGITUDE":-73.77893,"Average_Delay":5.85},{"Dep_Airport":"RSW","LATITUDE":26.53617,"LONGITUDE":-81.75517,"Average_Delay":6.21},{"Dep_Airport":"TYR","LATITUDE":32.35414,"LONGITUDE":-95.40239,"Average_Delay":17.74},{"Dep_Airport":"HIB","LATITUDE":47.3866,"LONGITUDE":-92.83899,"Average_Delay":-4.04},{"Dep_Airport":"PSG","LATITUDE":56.80165,"LONGITUDE":-132.94528,"Average_Delay":0.25},{"Dep_Airport":"JLN","LATITUDE":37.15181,"LONGITUDE":-94.49827,"Average_Delay":40.29},{"Dep_Airport":"ESC","LATITUDE":45.72267,"LONGITUDE":-87.09373,"Average_Delay":23.25},{"Dep_Airport":"PAE","LATITUDE":47.9129,"LONGITUDE":-122.0982,"Average_Delay":3.83},{"Dep_Airport":"ORH","LATITUDE":42.26734,"LONGITUDE":-71.87571,"Average_Delay":19.57},{"Dep_Airport":"CMX","LATITUDE":47.16842,"LONGITUDE":-88.48906,"Average_Delay":16.64},{"Dep_Airport":"XNA","LATITUDE":36.28187,"LONGITUDE":-94.30681,"Average_Delay":9.43},{"Dep_Airport":"CYS","LATITUDE":41.14,"LONGITUDE":-104.8203,"Average_Delay":51.89},{"Dep_Airport":"MRY","LATITUDE":36.58698,"LONGITUDE":-121.84295,"Average_Delay":9.22},{"Dep_Airport":"ABY","LATITUDE":31.53552,"LONGITUDE":-84.19447,"Average_Delay":4.71},{"Dep_Airport":"GSO","LATITUDE":36.09775,"LONGITUDE":-79.9373,"Average_Delay":3.33},{"Dep_Airport":"OAK","LATITUDE":37.72129,"LONGITUDE":-122.22072,"Average_Delay":7.38},{"Dep_Airport":"DEC","LATITUDE":39.8403,"LONGITUDE":-88.9548,"Average_Delay":27.26},{"Dep_Airport":"JAC","LATITUDE":43.60732,"LONGITUDE":-110.73774,"Average_Delay":15.56},{"Dep_Airport":"STL","LATITUDE":38.74769,"LONGITUDE":-90.35999,"Average_Delay":13.36},{"Dep_Airport":"ALB","LATITUDE":42.74812,"LONGITUDE":-73.80298,"Average_Delay":5.07},{"Dep_Airport":"TOL","LATITUDE":41.58681,"LONGITUDE":-83.80783,"Average_Delay":18.25},{"Dep_Airport":"LAX","LATITUDE":33.94254,"LONGITUDE":-118.40807,"Average_Delay":4.63},{"Dep_Airport":"BIS","LATITUDE":46.77411,"LONGITUDE":-100.74672,"Average_Delay":8.5},{"Dep_Airport":"SJU","LATITUDE":18.43942,"LONGITUDE":-66.00183,"Average_Delay":20.52},{"Dep_Airport":"PWM","LATITUDE":43.64617,"LONGITUDE":-70.30875,"Average_Delay":5.94},{"Dep_Airport":"SPI","LATITUDE":39.84395,"LONGITUDE":-89.67762,"Average_Delay":35.54},{"Dep_Airport":"TTN","LATITUDE":40.27669,"LONGITUDE":-74.81347,"Average_Delay":5.99},{"Dep_Airport":"JMS","LATITUDE":46.92972,"LONGITUDE":-98.6782,"Average_Delay":50.11},{"Dep_Airport":"BIL","LATITUDE":45.80766,"LONGITUDE":-108.54286,"Average_Delay":5.3},{"Dep_Airport":"OWB","LATITUDE":37.7742,"LONGITUDE":-87.1133,"Average_Delay":9.5},{"Dep_Airport":"BTV","LATITUDE":44.473,"LONGITUDE":-73.15031,"Average_Delay":9.76},{"Dep_Airport":"TLH","LATITUDE":30.39653,"LONGITUDE":-84.35033,"Average_Delay":8.63},{"Dep_Airport":"TWF","LATITUDE":42.4818,"LONGITUDE":-114.48774,"Average_Delay":3.41},{"Dep_Airport":"DDC","LATITUDE":37.7667,"LONGITUDE":-99.1333,"Average_Delay":33.81},{"Dep_Airport":"SMF","LATITUDE":38.69542,"LONGITUDE":-121.59077,"Average_Delay":4.5},{"Dep_Airport":"SJC","LATITUDE":37.36186,"LONGITUDE":-121.92901,"Average_Delay":0.99},{"Dep_Airport":"RIW","LATITUDE":43.025,"LONGITUDE":-108.3801,"Average_Delay":28.35},{"Dep_Airport":"VPS","LATITUDE":30.48325,"LONGITUDE":-86.5254,"Average_Delay":15.35},{"Dep_Airport":"BRO","LATITUDE":25.90683,"LONGITUDE":-97.42586,"Average_Delay":4.48},{"Dep_Airport":"MCW","LATITUDE":43.1536,"LONGITUDE":-93.201,"Average_Delay":-12.26},{"Dep_Airport":"BZN","LATITUDE":45.7769,"LONGITUDE":-111.15301,"Average_Delay":12.14},{"Dep_Airport":"SPS","LATITUDE":33.9888,"LONGITUDE":-98.49189,"Average_Delay":53.32},{"Dep_Airport":"SWO","LATITUDE":36.1156,"LONGITUDE":-97.0584,"Average_Delay":14.5},{"Dep_Airport":"FNT","LATITUDE":42.9655,"LONGITUDE":-83.74346,"Average_Delay":6.15},{"Dep_Airport":"GPT","LATITUDE":30.40728,"LONGITUDE":-89.07009,"Average_Delay":6.88},{"Dep_Airport":"SDF","LATITUDE":38.17439,"LONGITUDE":-85.736,"Average_Delay":8.73},{"Dep_Airport":"GUM","LATITUDE":13.4833,"LONGITUDE":144.8,"Average_Delay":-6.85},{"Dep_Airport":"LAS","LATITUDE":36.08036,"LONGITUDE":-115.15233,"Average_Delay":11.03},{"Dep_Airport":"ABQ","LATITUDE":35.04022,"LONGITUDE":-106.60919,"Average_Delay":5.62},{"Dep_Airport":"ADQ","LATITUDE":57.74997,"LONGITUDE":-152.49386,"Average_Delay":5.53},{"Dep_Airport":"AGS","LATITUDE":33.36996,"LONGITUDE":-81.9645,"Average_Delay":11.89},{"Dep_Airport":"OGG","LATITUDE":20.89865,"LONGITUDE":-156.43046,"Average_Delay":3.24},{"Dep_Airport":"LEX","LATITUDE":38.03697,"LONGITUDE":-84.60539,"Average_Delay":5.03},{"Dep_Airport":"VEL","LATITUDE":40.4409,"LONGITUDE":-109.50992,"Average_Delay":29.92},{"Dep_Airport":"DLH","LATITUDE":46.84209,"LONGITUDE":-92.19365,"Average_Delay":5.89},{"Dep_Airport":"MIA","LATITUDE":25.79325,"LONGITUDE":-80.29056,"Average_Delay":15.34},{"Dep_Airport":"MEI","LATITUDE":32.33313,"LONGITUDE":-88.75121,"Average_Delay":12.92},{"Dep_Airport":"CMH","LATITUDE":39.99799,"LONGITUDE":-82.89188,"Average_Delay":3.3},{"Dep_Airport":"PIH","LATITUDE":42.91131,"LONGITUDE":-112.59586,"Average_Delay":0.97},{"Dep_Airport":"USA","LATITUDE":37.978,"LONGITUDE":-122.0311,"Average_Delay":27.04},{"Dep_Airport":"ACT","LATITUDE":31.61129,"LONGITUDE":-97.23052,"Average_Delay":14.45},{"Dep_Airport":"SHR","LATITUDE":44.7972,"LONGITUDE":-106.9562,"Average_Delay":11.03},{"Dep_Airport":"GRR","LATITUDE":42.88082,"LONGITUDE":-85.52277,"Average_Delay":3.95},{"Dep_Airport":"CSG","LATITUDE":32.51633,"LONGITUDE":-84.93886,"Average_Delay":5.65},{"Dep_Airport":"LAN","LATITUDE":42.7787,"LONGITUDE":-84.58736,"Average_Delay":-4.27},{"Dep_Airport":"MGM","LATITUDE":32.30064,"LONGITUDE":-86.39398,"Average_Delay":15.97},{"Dep_Airport":"GJT","LATITUDE":39.12241,"LONGITUDE":-108.52673,"Average_Delay":12.61},{"Dep_Airport":"PSP","LATITUDE":33.82922,"LONGITUDE":-116.50625,"Average_Delay":4.57},{"Dep_Airport":"CNY","LATITUDE":38.75496,"LONGITUDE":-109.75484,"Average_Delay":1.64},{"Dep_Airport":"PIE","LATITUDE":27.7651,"LONGITUDE":-82.627,"Average_Delay":5.88},{"Dep_Airport":"FOD","LATITUDE":42.4975,"LONGITUDE":-94.168,"Average_Delay":4.57},{"Dep_Airport":"LGA","LATITUDE":40.77724,"LONGITUDE":-73.87261,"Average_Delay":-0.01},{"Dep_Airport":"OKC","LATITUDE":35.39309,"LONGITUDE":-97.60073,"Average_Delay":5.3},{"Dep_Airport":"CHS","LATITUDE":32.89865,"LONGITUDE":-80.04051,"Average_Delay":10.46},{"Dep_Airport":"MLU","LATITUDE":32.51087,"LONGITUDE":-92.03769,"Average_Delay":16.67},{"Dep_Airport":"FSM","LATITUDE":35.33659,"LONGITUDE":-94.36744,"Average_Delay":2.06},{"Dep_Airport":"SMX","LATITUDE":34.89925,"LONGITUDE":-120.45758,"Average_Delay":51.52},{"Dep_Airport":"SGF","LATITUDE":37.24433,"LONGITUDE":-93.38686,"Average_Delay":10.67},{"Dep_Airport":"PVD","LATITUDE":41.724,"LONGITUDE":-71.42822,"Average_Delay":6.31},{"Dep_Airport":"GRB","LATITUDE":44.48507,"LONGITUDE":-88.12959,"Average_Delay":6.99},{"Dep_Airport":"ELM","LATITUDE":42.15991,"LONGITUDE":-76.89144,"Average_Delay":15.27},{"Dep_Airport":"SRQ","LATITUDE":27.39533,"LONGITUDE":-82.55411,"Average_Delay":11.27},{"Dep_Airport":"DVL","LATITUDE":48.11425,"LONGITUDE":-98.90878,"Average_Delay":57.02},{"Dep_Airport":"HYA","LATITUDE":41.66934,"LONGITUDE":-70.28036,"Average_Delay":6.11},{"Dep_Airport":"ONT","LATITUDE":34.056,"LONGITUDE":-117.60119,"Average_Delay":7.98},{"Dep_Airport":"SPN","LATITUDE":15.1167,"LONGITUDE":145.7333,"Average_Delay":23.07},{"Dep_Airport":"RDM","LATITUDE":44.25407,"LONGITUDE":-121.14996,"Average_Delay":8.86},{"Dep_Airport":"SBA","LATITUDE":34.42621,"LONGITUDE":-119.84037,"Average_Delay":18.45},{"Dep_Airport":"CRP","LATITUDE":27.77036,"LONGITUDE":-97.50122,"Average_Delay":-5.15},{"Dep_Airport":"APN","LATITUDE":45.07807,"LONGITUDE":-83.56029,"Average_Delay":11.53},{"Dep_Airport":"ROA","LATITUDE":37.32547,"LONGITUDE":-79.97543,"Average_Delay":8.8},{"Dep_Airport":"MFE","LATITUDE":26.17583,"LONGITUDE":-98.23861,"Average_Delay":9.69},{"Dep_Airport":"MHK","LATITUDE":39.14097,"LONGITUDE":-96.67083,"Average_Delay":3.22},{"Dep_Airport":"CLL","LATITUDE":30.58859,"LONGITUDE":-96.36382,"Average_Delay":19.1},{"Dep_Airport":"GEG","LATITUDE":47.61986,"LONGITUDE":-117.53384,"Average_Delay":3.64},{"Dep_Airport":"HGR","LATITUDE":39.6418,"LONGITUDE":-77.72,"Average_Delay":23.43},{"Dep_Airport":"VLD","LATITUDE":30.7825,"LONGITUDE":-83.27672,"Average_Delay":0.4},{"Dep_Airport":"DAB","LATITUDE":29.17992,"LONGITUDE":-81.05806,"Average_Delay":9.23},{"Dep_Airport":"JST","LATITUDE":42.9982,"LONGITUDE":-74.3296,"Average_Delay":7.17},{"Dep_Airport":"IAG","LATITUDE":43.10726,"LONGITUDE":-78.94538,"Average_Delay":49.65},{"Dep_Airport":"JAX","LATITUDE":30.49406,"LONGITUDE":-81.68786,"Average_Delay":11.64},{"Dep_Airport":"TVC","LATITUDE":44.74144,"LONGITUDE":-85.58224,"Average_Delay":3.04},{"Dep_Airport":"EVV","LATITUDE":38.03799,"LONGITUDE":-87.53063,"Average_Delay":7.59},{"Dep_Airport":"SBP","LATITUDE":35.23706,"LONGITUDE":-120.64239,"Average_Delay":24.39},{"Dep_Airport":"BLV","LATITUDE":38.6245,"LONGITUDE":-90.1509,"Average_Delay":11.02},{"Dep_Airport":"GTF","LATITUDE":47.482,"LONGITUDE":-111.37069,"Average_Delay":5.46},{"Dep_Airport":"SLC","LATITUDE":40.78839,"LONGITUDE":-111.97777,"Average_Delay":4.05},{"Dep_Airport":"PSE","LATITUDE":18.0083,"LONGITUDE":-66.56301,"Average_Delay":16.54},{"Dep_Airport":"EUG","LATITUDE":44.12326,"LONGITUDE":-123.21869,"Average_Delay":10.89},{"Dep_Airport":"RIC","LATITUDE":37.50517,"LONGITUDE":-77.31967,"Average_Delay":6.94},{"Dep_Airport":"SGU","LATITUDE":37.09058,"LONGITUDE":-113.59306,"Average_Delay":4.21},{"Dep_Airport":"INL","LATITUDE":48.56619,"LONGITUDE":-93.40307,"Average_Delay":-4.23},{"Dep_Airport":"CWA","LATITUDE":44.77762,"LONGITUDE":-89.66678,"Average_Delay":-8.79},{"Dep_Airport":"EYW","LATITUDE":24.55611,"LONGITUDE":-81.75956,"Average_Delay":13.44},{"Dep_Airport":"XWA","LATITUDE":48.147,"LONGITUDE":-103.618,"Average_Delay":14.81},{"Dep_Airport":"OAJ","LATITUDE":34.82916,"LONGITUDE":-77.61214,"Average_Delay":5.69},{"Dep_Airport":"SUX","LATITUDE":42.4026,"LONGITUDE":-96.38437,"Average_Delay":20.2},{"Dep_Airport":"SYR","LATITUDE":43.11119,"LONGITUDE":-76.10631,"Average_Delay":10.34},{"Dep_Airport":"BFL","LATITUDE":35.4336,"LONGITUDE":-119.05677,"Average_Delay":7.61},{"Dep_Airport":"AVP","LATITUDE":41.3333,"LONGITUDE":-75.0667,"Average_Delay":15.95},{"Dep_Airport":"SCC","LATITUDE":70.19476,"LONGITUDE":-148.46516,"Average_Delay":-14.55},{"Dep_Airport":"EWR","LATITUDE":40.6925,"LONGITUDE":-74.16866,"Average_Delay":10.4},{"Dep_Airport":"GRI","LATITUDE":40.96747,"LONGITUDE":-98.30861,"Average_Delay":27.88},{"Dep_Airport":"HRL","LATITUDE":26.22851,"LONGITUDE":-97.65439,"Average_Delay":7.99},{"Dep_Airport":"RNO","LATITUDE":39.49858,"LONGITUDE":-119.76806,"Average_Delay":10.38},{"Dep_Airport":"HHH","LATITUDE":32.1938,"LONGITUDE":-80.7382,"Average_Delay":49.41},{"Dep_Airport":"GST","LATITUDE":58.42438,"LONGITUDE":-135.70738,"Average_Delay":-2.72},{"Dep_Airport":"FLL","LATITUDE":26.07258,"LONGITUDE":-80.15275,"Average_Delay":19.46},{"Dep_Airport":"MQT","LATITUDE":46.35364,"LONGITUDE":-87.39536,"Average_Delay":3.47},{"Dep_Airport":"ANC","LATITUDE":61.17432,"LONGITUDE":-149.99619,"Average_Delay":4.04},{"Dep_Airport":"CHO","LATITUDE":38.13864,"LONGITUDE":-78.45286,"Average_Delay":5.76},{"Dep_Airport":"RFD","LATITUDE":42.2,"LONGITUDE":-89.1,"Average_Delay":10.73},{"Dep_Airport":"IDA","LATITUDE":43.51456,"LONGITUDE":-112.07017,"Average_Delay":9.4},{"Dep_Airport":"SHV","LATITUDE":32.44663,"LONGITUDE":-93.8256,"Average_Delay":21.65},{"Dep_Airport":"GNV","LATITUDE":29.69006,"LONGITUDE":-82.27178,"Average_Delay":13.16},{"Dep_Airport":"MCO","LATITUDE":28.42889,"LONGITUDE":-81.31603,"Average_Delay":17.72},{"Dep_Airport":"PLN","LATITUDE":45.57093,"LONGITUDE":-84.79672,"Average_Delay":14.7},{"Dep_Airport":"VCT","LATITUDE":28.8667,"LONGITUDE":-96.1,"Average_Delay":3.49},{"Dep_Airport":"FSD","LATITUDE":43.58135,"LONGITUDE":-96.7417,"Average_Delay":8.37},{"Dep_Airport":"MSO","LATITUDE":46.91631,"LONGITUDE":-114.09056,"Average_Delay":15.55},{"Dep_Airport":"ALW","LATITUDE":46.0646,"LONGITUDE":-118.343,"Average_Delay":5.37},{"Dep_Airport":"ATL","LATITUDE":33.64044,"LONGITUDE":-84.42694,"Average_Delay":5.77},{"Dep_Airport":"AMA","LATITUDE":35.21937,"LONGITUDE":-101.70593,"Average_Delay":6.42},{"Dep_Airport":"SIT","LATITUDE":57.04714,"LONGITUDE":-135.3616,"Average_Delay":7.45},{"Dep_Airport":"BOS","LATITUDE":42.36435,"LONGITUDE":-71.00518,"Average_Delay":8.16},{"Dep_Airport":"DRO","LATITUDE":37.15152,"LONGITUDE":-107.75377,"Average_Delay":18.81},{"Dep_Airport":"ORF","LATITUDE":36.89461,"LONGITUDE":-76.20122,"Average_Delay":8.11},{"Dep_Airport":"SAN","LATITUDE":32.73356,"LONGITUDE":-117.18966,"Average_Delay":4.96},{"Dep_Airport":"BNA","LATITUDE":36.12448,"LONGITUDE":-86.67818,"Average_Delay":5.76},{"Dep_Airport":"LIH","LATITUDE":21.97598,"LONGITUDE":-159.33896,"Average_Delay":3.86},{"Dep_Airport":"BPT","LATITUDE":29.95083,"LONGITUDE":-94.02069,"Average_Delay":10.27},{"Dep_Airport":"MOB","LATITUDE":30.69142,"LONGITUDE":-88.24283,"Average_Delay":5.76},{"Dep_Airport":"AZA","LATITUDE":33.4484,"LONGITUDE":-112.074,"Average_Delay":5.06},{"Dep_Airport":"LAR","LATITUDE":41.31205,"LONGITUDE":-105.67499,"Average_Delay":62.04},{"Dep_Airport":"MLB","LATITUDE":28.10275,"LONGITUDE":-80.64581,"Average_Delay":26.31},{"Dep_Airport":"IAD","LATITUDE":38.94453,"LONGITUDE":-77.45581,"Average_Delay":4.54},{"Dep_Airport":"DFW","LATITUDE":32.89595,"LONGITUDE":-97.0372,"Average_Delay":12.85},{"Dep_Airport":"ROC","LATITUDE":43.11887,"LONGITUDE":-77.67238,"Average_Delay":6.6},{"Dep_Airport":"SNA","LATITUDE":33.67566,"LONGITUDE":-117.86822,"Average_Delay":5.0},{"Dep_Airport":"LRD","LATITUDE":27.54374,"LONGITUDE":-99.46154,"Average_Delay":19.24},{"Dep_Airport":"FAR","LATITUDE":46.91935,"LONGITUDE":-96.81499,"Average_Delay":5.26},{"Dep_Airport":"DHN","LATITUDE":31.32134,"LONGITUDE":-85.44963,"Average_Delay":3.22},{"Dep_Airport":"STT","LATITUDE":18.33731,"LONGITUDE":-64.97336,"Average_Delay":12.08},{"Dep_Airport":"MLI","LATITUDE":41.44853,"LONGITUDE":-90.50754,"Average_Delay":7.77},{"Dep_Airport":"MSN","LATITUDE":43.13986,"LONGITUDE":-89.33751,"Average_Delay":12.28},{"Dep_Airport":"ALO","LATITUDE":42.55708,"LONGITUDE":-92.40034,"Average_Delay":3.27},{"Dep_Airport":"ELP","LATITUDE":31.80667,"LONGITUDE":-106.37781,"Average_Delay":4.75},{"Dep_Airport":"RST","LATITUDE":43.90883,"LONGITUDE":-92.49799,"Average_Delay":9.59},{"Dep_Airport":"LNK","LATITUDE":40.85097,"LONGITUDE":-96.75925,"Average_Delay":3.03},{"Dep_Airport":"RDD","LATITUDE":40.50898,"LONGITUDE":-122.2934,"Average_Delay":9.45},{"Dep_Airport":"IND","LATITUDE":39.71733,"LONGITUDE":-86.29438,"Average_Delay":2.91},{"Dep_Airport":"PSC","LATITUDE":46.26468,"LONGITUDE":-119.11903,"Average_Delay":6.86},{"Dep_Airport":"LAW","LATITUDE":34.56771,"LONGITUDE":-98.41664,"Average_Delay":15.01},{"Dep_Airport":"BIH","LATITUDE":37.3667,"LONGITUDE":-118.3667,"Average_Delay":-6.62},{"Dep_Airport":"LGB","LATITUDE":33.81772,"LONGITUDE":-118.15161,"Average_Delay":1.43},{"Dep_Airport":"MVY","LATITUDE":41.39303,"LONGITUDE":-70.61433,"Average_Delay":13.32},{"Dep_Airport":"CDC","LATITUDE":37.70097,"LONGITUDE":-113.09858,"Average_Delay":-5.55},{"Dep_Airport":"ROW","LATITUDE":33.30156,"LONGITUDE":-104.53056,"Average_Delay":9.09},{"Dep_Airport":"MDW","LATITUDE":41.78598,"LONGITUDE":-87.75242,"Average_Delay":9.81},{"Dep_Airport":"FCA","LATITUDE":48.3114,"LONGITUDE":-114.25507,"Average_Delay":9.38},{"Dep_Airport":"MEM","LATITUDE":35.04242,"LONGITUDE":-89.97667,"Average_Delay":8.64},{"Dep_Airport":"ECP","LATITUDE":30.176,"LONGITUDE":-85.8055,"Average_Delay":7.05},{"Dep_Airport":"DTW","LATITUDE":42.21206,"LONGITUDE":-83.34884,"Average_Delay":1.86},{"Dep_Airport":"MDT","LATITUDE":40.1935,"LONGITUDE":-76.7634,"Average_Delay":10.69},{"Dep_Airport":"ICT","LATITUDE":37.64996,"LONGITUDE":-97.43305,"Average_Delay":8.62},{"Dep_Airport":"COS","LATITUDE":38.80581,"LONGITUDE":-104.70025,"Average_Delay":9.74},{"Dep_Airport":"HYS","LATITUDE":38.84494,"LONGITUDE":-99.27403,"Average_Delay":28.66},{"Dep_Airport":"GTR","LATITUDE":33.45033,"LONGITUDE":-88.59137,"Average_Delay":-2.23},{"Dep_Airport":"WYS","LATITUDE":44.6884,"LONGITUDE":-111.11764,"Average_Delay":14.86},{"Dep_Airport":"BUF","LATITUDE":42.94052,"LONGITUDE":-78.73217,"Average_Delay":8.17},{"Dep_Airport":"BET","LATITUDE":60.77978,"LONGITUDE":-161.838,"Average_Delay":16.2},{"Dep_Airport":"EKO","LATITUDE":40.82493,"LONGITUDE":-115.7917,"Average_Delay":3.02},{"Dep_Airport":"HPN","LATITUDE":41.06696,"LONGITUDE":-73.70757,"Average_Delay":11.76},{"Dep_Airport":"CID","LATITUDE":41.88459,"LONGITUDE":-91.71087,"Average_Delay":11.4},{"Dep_Airport":"ACV","LATITUDE":40.97812,"LONGITUDE":-124.10862,"Average_Delay":16.23},{"Dep_Airport":"STS","LATITUDE":38.2919,"LONGITUDE":-122.458,"Average_Delay":8.72},{"Dep_Airport":"SUN","LATITUDE":43.50484,"LONGITUDE":-114.29659,"Average_Delay":6.42},{"Dep_Airport":"CIU","LATITUDE":46.25075,"LONGITUDE":-84.47239,"Average_Delay":30.98},{"Dep_Airport":"TXK","LATITUDE":33.45371,"LONGITUDE":-93.99102,"Average_Delay":45.02},{"Dep_Airport":"LBF","LATITUDE":41.1167,"LONGITUDE":-100.6667,"Average_Delay":9.48},{"Dep_Airport":"LWS","LATITUDE":46.3745,"LONGITUDE":-117.01539,"Average_Delay":9.73},{"Dep_Airport":"MCI","LATITUDE":39.29761,"LONGITUDE":-94.71391,"Average_Delay":7.25},{"Dep_Airport":"PGV","LATITUDE":35.6127,"LONGITUDE":-77.3663,"Average_Delay":34.14},{"Dep_Airport":"MSY","LATITUDE":29.99339,"LONGITUDE":-90.25803,"Average_Delay":7.97},{"Dep_Airport":"SAF","LATITUDE":35.61678,"LONGITUDE":-106.08814,"Average_Delay":18.18},{"Dep_Airport":"LBL","LATITUDE":37.0431,"LONGITUDE":-100.921,"Average_Delay":75.8},{"Dep_Airport":"OMA","LATITUDE":41.30252,"LONGITUDE":-95.89417,"Average_Delay":5.34},{"Dep_Airport":"YUM","LATITUDE":32.65658,"LONGITUDE":-114.60597,"Average_Delay":18.93},{"Dep_Airport":"GSP","LATITUDE":34.89567,"LONGITUDE":-82.21886,"Average_Delay":2.17},{"Dep_Airport":"ACK","LATITUDE":41.25305,"LONGITUDE":-70.06018,"Average_Delay":19.28},{"Dep_Airport":"STX","LATITUDE":17.70189,"LONGITUDE":-64.79856,"Average_Delay":-5.65},{"Dep_Airport":"SCE","LATITUDE":40.85121,"LONGITUDE":-77.8463,"Average_Delay":5.11},{"Dep_Airport":"PVU","LATITUDE":40.2338,"LONGITUDE":-111.6585,"Average_Delay":25.95},{"Dep_Airport":"SFB","LATITUDE":28.5383,"LONGITUDE":-81.3792,"Average_Delay":12.07},{"Dep_Airport":"CLT","LATITUDE":35.21401,"LONGITUDE":-80.94313,"Average_Delay":11.61},{"Dep_Airport":"TUL","LATITUDE":36.19837,"LONGITUDE":-95.88824,"Average_Delay":4.09},{"Dep_Airport":"AUS","LATITUDE":30.19453,"LONGITUDE":-97.66987,"Average_Delay":7.6},{"Dep_Airport":"SAV","LATITUDE":32.12758,"LONGITUDE":-81.20214,"Average_Delay":9.83},{"Dep_Airport":"WRG","LATITUDE":56.48433,"LONGITUDE":-132.36982,"Average_Delay":-0.59},{"Dep_Airport":"ABE","LATITUDE":40.65236,"LONGITUDE":-75.4404,"Average_Delay":7.79},{"Dep_Airport":"HSV","LATITUDE":34.64045,"LONGITUDE":-86.77311,"Average_Delay":16.38},{"Dep_Airport":"STC","LATITUDE":45.54532,"LONGITUDE":-94.05834,"Average_Delay":2.0},{"Dep_Airport":"DEN","LATITUDE":39.85841,"LONGITUDE":-104.667,"Average_Delay":10.49},{"Dep_Airport":"BOI","LATITUDE":43.56444,"LONGITUDE":-116.22278,"Average_Delay":3.92},{"Dep_Airport":"DCA","LATITUDE":38.85208,"LONGITUDE":-77.03772,"Average_Delay":2.85},{"Dep_Airport":"ABR","LATITUDE":45.44906,"LONGITUDE":-98.42183,"Average_Delay":-5.16},{"Dep_Airport":"RDU","LATITUDE":35.87764,"LONGITUDE":-78.78747,"Average_Delay":8.81},{"Dep_Airport":"PRC","LATITUDE":34.6544,"LONGITUDE":-112.4196,"Average_Delay":21.2}]